gps_msg.header.stamp.to_sec(),gps_msg.latitude,gps_msg.longitude,timed_compass_msg.header.stamp.to_sec(),timed_compass_msg.range,vfr_hud_msg.header.stamp.to_sec(),vfr_hud_msg.groundspeed,gps_velocity_msg.header.stamp.to_sec(),gps_velocity_msg.twist.linear.x,gps_velocity_msg.twist.linear.y,imu_msg.header.stamp.to_sec(),imu_msg.pose.pose.position.x,imu_msg.pose.pose.position.y,imu_msg.pose.pose.position.z,imu_msg.pose.pose.orientation.x,imu_msg.pose.pose.orientation.y,imu_msg.pose.pose.orientation.z,imu_msg.pose.pose.orientation.w,imu_msg.twist.twist.linear.x,imu_msg.twist.twist.linear.y,imu_msg.twist.twist.linear.z,imu_msg.twist.twist.angular.x,imu_msg.twist.twist.angular.y,imu_msg.twist.twist.angular.z,sonde_msg.header.stamp.to_sec(),yymmdd,hhmmss,battery_v,temperature_c,depth_m,cond_uS_cm,pH,spcond_mS_cm,spcond_Us_cm,chlorophyll_rfu,odo_pct_sat,odo_mg_l,turbidity_ntu,bga_pc_rfu,chlorophyll_ug_l,bga_pc_ug_l
1662031219.0768797,43.410038,-72.0370275,1675301271.644086,15.49,1662031219.2994542,0.1001606434583664,1662031219.0428796,-0.22297632585594138,0.08877813980809156,1662031219.0978796,-0.11273880302906036,0.03391008824110031,330.9827575683594,0.03955808923443581,0.03413460504619246,-0.6043720489619798,-0.7949870519372999,0.0396836712876774,-0.013622174218366392,-0.06816946083624248,0.005496852099895477,0.0012785065919160843,0.0004797782166860996,1662031219.457292,220901.0,72018.0,4.949999809265137,15.694000244140625,-0.16699999570846558,0.07000000029802322,6.820000171661377,0.0,0.09000000357627869,0.20999999344348907,103.19999694824219,10.25,11.789999961853027,1.309999942779541,0.8500000238418579,1.309999942779541
1662031220.0578797,43.410038,-72.0370269,1675301272.616754,15.5,1662031220.2994475,0.2846195697784424,1662031220.0428796,-0.055744081463985344,0.02219453495202289,1662031220.0968797,-0.05777372792363167,0.026843540370464325,331.0054016113281,0.03839558719436672,0.032400187576069106,-0.6043973297867311,-0.795097399364194,0.07185377245800216,-0.22880776450802517,-0.09132609304033189,0.005168728530406952,0.0024218526668846607,0.00046620349166914794,1662031220.457291,220901.0,72019.0,4.949999809265137,15.694000244140625,-0.1679999977350235,0.07000000029802322,6.849999904632568,0.0,0.07999999821186066,0.2199999988079071,103.19000244140625,10.25,11.770000457763672,1.309999942779541,0.8899999856948853,1.309999942779541
1662031221.0768797,43.4100385,-72.0370259,1675301273.637272,15.52,1662031221.2994478,0.4577792286872864,1662031221.0428796,-0.10219748268397313,0.0406899807453753,1662031221.0978796,0.03302085027098656,0.10100848972797394,331.04754638671875,0.037475189082635404,0.03079309676064101,-0.6043684354190433,-0.7952271308652943,0.16076041412073758,-0.38103773490956766,-0.09510809168900901,0.0050707049667835236,0.0028230571188032627,0.0004791163955815133,1662031221.457292,220901.0,72020.0,4.949999809265137,15.694000244140625,-0.1679999977350235,0.07000000029802322,6.869999885559082,0.0,0.07999999821186066,0.23999999463558197,103.19000244140625,10.25,11.819999694824219,1.3600000143051147,0.9700000286102295,1.3600000143051147
1662031222.0978796,43.410039,-72.0370247,1675301274.668789,15.56,1662031222.2996402,0.5494260191917419,1662031222.0428796,-0.22297632585594138,0.08877813980809156,1662031222.1178796,0.12431874871253967,0.14607691764831543,331.0589294433594,0.03725238965952326,0.029654427146158256,-0.6041862578862309,-0.7954192857837437,0.19662919269068022,-0.49903373049143057,-0.09941652256396159,0.004486163146793842,0.0033729758579283953,0.0003212590236216779,1662031222.457295,220901.0,72021.0,4.949999809265137,15.694999694824219,-0.16699999570846558,0.07000000029802322,6.849999904632568,0.0,0.09000000357627869,0.25,103.19000244140625,10.25,11.880000114440918,1.399999976158142,1.0099999904632568,1.399999976158142
1662031223.0768797,43.4100393,-72.0370246,1675301275.636089,15.59,1662031223.2984815,0.6022361516952515,1662031223.0428796,-0.399499250491895,0.1590608338228307,1662031223.0968797,0.1369188129901886,0.18698081374168396,331.0974426269531,0.03757453010713628,0.03002533727183936,-0.6039513252426754,-0.7955686208910936,0.2125691761368652,-0.5394145137326848,-0.08317515065562306,0.005521559156477451,0.002367748413234949,0.0001729398500174281,1662031223.457307,220901.0,72022.0,4.949999809265137,15.694000244140625,-0.16699999570846558,0.07000000029802322,6.869999885559082,0.0,0.09000000357627869,0.3100000023841858,103.19000244140625,10.25,11.84000015258789,1.409999966621399,1.2300000190734863,1.4199999570846558
1662031224.0768797,43.4100388,-72.0370234,1675301276.645222,15.66,1662031224.2984993,0.6667284965515137,1662031224.0428796,-0.1951042851239487,0.07768087233208011,1662031224.0978796,0.23176492750644684,0.12697602808475494,331.09002685546875,0.03713748511715206,0.030469857619434944,-0.603544339794165,-0.7958810368882088,0.19322135745057947,-0.6260332825289561,-0.09877070189019324,0.005368228070437908,0.002150769578292966,0.0004918443737551568,1662031224.457292,220901.0,72023.0,4.949999809265137,15.692000389099121,-0.16699999570846558,0.07000000029802322,6.889999866485596,0.0,0.07999999821186066,0.3700000047683716,103.20999908447266,10.25,11.800000190734863,1.409999966621399,1.4900000095367432,1.4199999570846558
1662031225.0978796,43.4100386,-72.0370231,1675301277.656955,15.73,1662031225.2984886,0.6892609000205994,1662031225.0428796,-0.09290680243997558,0.036990891586704815,1662031225.1178796,0.2600947916507721,0.10700991749763489,331.0946350097656,0.03753045286089477,0.030796225293522977,-0.6029424942394443,-0.7963061008532112,0.2038778685716557,-0.6593395671096931,-0.10404947427508074,0.004601678811013699,0.0012493287213146687,0.0001433241995982824,1662031225.45729,220901.0,72024.0,4.949999809265137,15.6899995803833,-0.16699999570846558,0.07000000029802322,6.889999866485596,0.0,0.07999999821186066,0.38999998569488525,103.22000122070312,10.260000228881836,11.770000457763672,1.340000033378601,1.559999942779541,1.340000033378601
1662031226.0578797,43.4100383,-72.0370256,1675301278.617443,15.75,1662031226.298527,0.5785171389579773,1662031226.0428796,-0.13936020365996335,0.055486337380057225,1662031226.0968797,0.045236047357320786,0.06928836554288864,331.08575439453125,0.03866643434450771,0.031083941445204346,-0.6026985996039518,-0.7964251964087704,0.170122655903848,-0.5696335908532503,-0.09797913358607463,0.003670899197459221,0.002798285335302353,0.000463070115074515,1662031226.457285,220901.0,72025.0,4.949999809265137,15.690999984741211,-0.16699999570846558,0.07000000029802322,6.900000095367432,0.0,0.09000000357627869,0.36000001430511475,103.22000122070312,10.260000228881836,11.789999961853027,1.340000033378601,1.4500000476837158,1.340000033378601
1662031227.0778797,43.4100378,-72.0370295,1675301279.638404,15.78,1662031227.2985492,0.4709396958351135,1662031227.0428796,-0.03716272097599023,0.014796356634681927,1662031227.0978796,-0.2717350125312805,0.009609777480363846,331.066162109375,0.0403882963526494,0.03213793949856069,-0.6024411821974679,-0.796492661833764,0.12693043442020244,-0.4671237530759085,-0.095086534991018,0.0025820229202508926,-0.0017601046711206436,-0.0004951756563968954,1662031227.457284,220901.0,72026.0,4.949999809265137,15.690999984741211,-0.16699999570846558,0.07000000029802322,6.909999847412109,0.0,0.09000000357627869,0.3499999940395355,103.22000122070312,10.260000228881836,11.850000381469727,1.3899999856948853,1.4199999570846558,1.3899999856948853
1662031228.0968797,43.4100378,-72.0370323,1675301280.663023,15.82,1662031228.2985609,0.4556730091571808,1662031228.0428796,-0.29730176780792184,0.11837085307745542,1662031228.1178796,-0.498714417219162,0.007183916866779327,331.0669860839844,0.04120467628708031,0.032555930351430104,-0.6022663829200088,-0.7965660613254114,0.12484756577674055,-0.41562786026441306,-0.0888773217040579,0.0050101978704333305,0.0016361437737941742,0.00033757975324988343,1662031228.457285,220901.0,72027.0,4.949999809265137,15.6899995803833,-0.16699999570846558,0.07000000029802322,6.909999847412109,0.0,0.09000000357627869,0.3499999940395355,103.22000122070312,10.260000228881836,11.84000015258789,1.399999976158142,1.409999966621399,1.399999976158142
1662031229.0768797,43.4100379,-72.037032,1675301281.63595,15.87,1662031229.2985363,0.5071054697036743,1662031229.0428796,-0.12077884317196826,0.04808815906271626,1662031229.0978796,-0.469819039106369,0.013134744018316269,331.0800476074219,0.040980869882989504,0.03215008638008952,-0.601896584220713,-0.7968735421337718,0.14885003585056333,-0.46644382478492447,-0.09192324408405511,0.00542269553989172,0.0020391244906932116,0.0006223752279765902,1662031229.457287,220901.0,72028.0,4.949999809265137,15.689000129699707,-0.16699999570846558,0.07000000029802322,6.889999866485596,0.0,0.07999999821186066,0.3799999952316284,103.2300033569336,10.260000228881836,12.0,1.3799999952316284,1.5299999713897705,1.3799999952316284
1662031230.0768797,43.410038,-72.0370326,1675301282.640679,15.94,1662031230.2985475,0.4850366711616516,1662031230.0428796,-0.1300695234159658,0.05178724822138675,1662031230.0978796,-0.019928336143493652,-0.009448282420635223,0.008119859732687473,0.04129278162334076,0.03189190285662652,-0.6015666491784484,-0.7971169169665163,0.14703361994122913,-0.45314881055160594,-0.08424686122034668,0.0044843824580311775,0.0017160384450107813,-0.0001853062422014775,1662031230.45729,220901.0,72029.0,4.949999809265137,15.690999984741211,-0.16699999570846558,0.07000000029802322,6.860000133514404,0.0,0.07999999821186066,0.4099999964237213,103.23999786376953,10.260000228881836,11.859999656677246,1.3600000143051147,1.659999966621399,1.3600000143051147
1662031231.0968797,43.4100384,-72.0370319,1675301283.66592,15.99,1662031231.2985952,0.5288501977920532,1662031231.0428796,-0.21368564561194384,0.08507905064942108,1662031231.1178796,0.03925195336341858,0.0521031953394413,-0.003849619999527931,0.03957664568780963,0.03250143165880009,-0.601108383852138,-0.7975249569254247,0.19642548843095656,-0.4686098716248628,-0.08995201218198581,0.006498571485280991,-0.000876719132065773,0.00026261614402756106,1662031231.457288,220901.0,72030.0,4.949999809265137,15.690999984741211,-0.16699999570846558,0.07000000029802322,6.820000171661377,0.0,0.07999999821186066,0.3799999952316284,103.25,10.260000228881836,11.710000038146973,1.399999976158142,1.5199999809265137,1.399999976158142
1662031232.0768797,43.4100384,-72.0370297,1675301284.635905,16.02,1662031232.298607,0.609626054763794,1662031232.0428796,-0.20439496536794627,0.0813799614907506,1662031232.0978796,0.21704334020614624,0.05086636543273926,-0.02799118310213089,0.039556073670162624,0.0320715823725506,-0.6007997683174459,-0.7977758889748578,0.21806554421598245,-0.5455283326968865,-0.11038088317820285,0.004970121197402477,0.0018212576396763325,0.00037387484917417147,1662031232.457287,220901.0,72031.0,4.949999809265137,15.6899995803833,-0.16699999570846558,0.07000000029802322,6.809999942779541,0.0,0.09000000357627869,0.3700000047683716,103.26000213623047,10.260000228881836,11.779999732971191,1.3799999952316284,1.4900000095367432,1.3799999952316284
1662031233.0768797,43.4100384,-72.0370279,1675301285.636584,16.03,1662031233.2986176,0.6439652442932129,1662031233.0428796,-0.11148816292797069,0.04438906990404578,1662031233.0978796,0.3652024269104004,0.05192399397492409,0.023401709273457527,0.039123193640839694,0.03197801866075264,-0.60073221405845,-0.7978518590780537,0.22864656697350463,-0.5855565789361435,-0.09886891659790685,0.00490143895149231,0.00126067572273314,0.00019127869745716436,1662031233.457287,220901.0,72032.0,4.949999809265137,15.689000129699707,-0.16699999570846558,0.07000000029802322,6.679999828338623,0.0,0.09000000357627869,0.3799999952316284,103.26000213623047,10.260000228881836,11.800000190734863,1.3300000429153442,1.5399999618530273,1.3300000429153442
1662031234.0978796,43.410039,-72.0370264,1675301286.657207,16.02,1662031234.2987113,0.6332470774650574,1662031234.0428796,-0.04645340121998779,0.018495445793352407,1662031234.1178796,0.491766095161438,0.1158146783709526,-0.011365998536348343,0.03942242325051006,0.03188211312289885,-0.6007573875186865,-0.7978220132019417,0.24512542191516778,-0.5825616507375458,-0.1083273011022804,0.004707627929747105,0.0016789864748716354,-8.692784467712065e-05,1662031234.457286,220901.0,72033.0,4.949999809265137,15.6850004196167,-0.16699999570846558,0.07000000029802322,6.670000076293945,0.0,0.09000000357627869,0.3400000035762787,103.26000213623047,10.260000228881836,11.75,1.399999976158142,1.340000033378601,1.399999976158142
1662031235.0578797,43.4100394,-72.0370245,1675301287.617565,16.0,1662031235.2986042,0.641200602054596,1662031235.0428796,-0.018581360487995115,0.0073981783173409634,1662031235.0968797,0.04976285994052887,0.03626073896884918,0.0062654707580804825,0.03966188395838576,0.032333081616393276,-0.6008721077231971,-0.7977055954137101,0.24683078840867198,-0.5804443762267922,-0.10545469476082169,0.004466530866920948,0.0017433622851967812,0.00019054062431678154,1662031235.457286,220901.0,72034.0,4.949999809265137,15.680999755859375,-0.16699999570846558,0.07000000029802322,6.710000038146973,0.0,0.09000000357627869,0.3100000023841858,103.26000213623047,10.260000228881836,11.729999542236328,1.4299999475479126,1.2300000190734863,1.4299999475479126
1662031236.0978796,43.4100438,-72.0370206,1675301288.662233,15.97,1662031236.2986147,0.6768829822540283,1662031236.0428796,-0.1951042851239487,0.07768087233208011,1662031236.1178796,0.3608574867248535,0.5286526083946228,-0.04492191970348358,0.03986036228003662,0.03232884418338029,-0.601060443207205,-0.7975539736997297,0.36195667612959304,-0.5502006659578222,-0.11662189046551244,0.005074722692370415,0.001195001183077693,0.0003981305635534225,1662031236.457286,220901.0,72035.0,4.949999809265137,15.678000450134277,-0.16699999570846558,0.07000000029802322,6.789999961853027,0.0,0.07999999821186066,0.28999999165534973,103.26000213623047,10.260000228881836,11.710000038146973,1.3200000524520874,1.149999976158142,1.3200000524520874
1662031237.0578797,43.4100484,-72.0370164,1675301289.62539,15.96,1662031237.298625,0.736739456653595,1662031237.0428796,-0.08361612219597801,0.03329180242803433,1662031237.0978796,0.07309156656265259,0.09305858612060547,0.0019737929105758667,0.040555117812853834,0.03205533624810566,-0.6012134614238713,-0.7974146422282032,0.4419126983923534,-0.5634841534216665,-0.12796125890981766,0.00487461406737566,0.001128126634284854,-0.00017863610992208137,1662031237.457284,220901.0,72036.0,4.949999809265137,15.677000045776367,-0.16699999570846558,0.07000000029802322,6.769999980926514,0.0,0.07999999821186066,0.30000001192092896,103.25,10.260000228881836,11.720000267028809,1.2999999523162842,1.1799999475479126,1.2999999523162842
1662031238.0768797,43.4100507,-72.037012,1675301290.636435,15.97,1662031238.2986367,0.7368426322937012,1662031238.0428796,-0.22297632585594138,0.08877813980809156,1662031238.0978796,0.4132280945777893,0.3267545700073242,-0.045369841158390045,0.039993517700819776,0.03207662096369016,-0.6011716927148468,-0.7974736389422736,0.4255497969016788,-0.6091509193057228,-0.13907081214443173,0.005468272604048252,0.0007817363366484642,0.0004106293199583887,1662031238.457285,220901.0,72037.0,4.949999809265137,15.675999641418457,-0.16699999570846558,0.07000000029802322,6.71999979019165,0.0,0.07999999821186066,0.2800000011920929,103.23999786376953,10.260000228881836,11.720000267028809,1.340000033378601,1.1200000047683716,1.340000033378601
1662031239.0768797,43.4100501,-72.0370101,1675301291.636567,15.97,1662031239.2986517,0.6766732931137085,1662031239.0428796,-0.2601390468319316,0.1035744964427735,1662031239.0978796,0.021296024322509766,-0.025164484977722168,0.018372327089309692,0.039590747905953884,0.03310970535150871,-0.6010618707792527,-0.7975342924207891,0.3300640499607521,-0.5992611760812253,-0.12503908238835132,0.003978129476308823,-0.0026478739455342293,-0.00029725042986683515,1662031239.457286,220901.0,72038.0,4.949999809265137,15.673999786376953,-0.16699999570846558,0.07000000029802322,6.71999979019165,0.0,0.07999999821186066,0.27000001072883606,103.2300033569336,10.260000228881836,11.729999542236328,1.3200000524520874,1.0800000429153442,1.3300000429153442
1662031240.0578797,43.4100487,-72.03701,1675301292.62285,15.97,1662031240.2986608,0.5600490570068359,1662031240.0428796,-0.12077884317196826,0.04808815906271626,1662031240.0968797,0.03787708282470703,-0.19341397285461426,0.03313896059989929,0.03961504677151988,0.03402010629990768,-0.6010139886256598,-0.7975308557748149,0.21506109197966838,-0.5334746314978204,-0.110819338231841,0.0045168595388531685,0.0008159973658621311,0.0001785076456144451,1662031240.457286,220901.0,72039.0,4.949999809265137,15.673999786376953,-0.16699999570846558,0.07000000029802322,6.730000019073486,0.0,0.09000000357627869,0.28999999165534973,103.22000122070312,10.260000228881836,11.770000457763672,1.2999999523162842,1.1399999856948853,1.2999999523162842
1662031241.0768797,43.4100468,-72.0370099,1675301293.635967,15.95,1662031241.2986662,0.48566117882728577,1662031241.0428796,-0.04645340121998779,0.018495445793352407,1662031241.0978796,0.03584182262420654,-0.4012794494628906,0.052316948771476746,0.03960360838202642,0.0350977822425287,-0.6010421723777165,-0.7974634831189793,0.124511852357497,-0.4723508516635279,-0.09046461124910067,0.004223410040140152,0.001467911759391427,0.00019836280262097697,1662031241.457287,220901.0,72040.0,4.949999809265137,15.675000190734863,-0.16699999570846558,0.07000000029802322,6.710000038146973,0.0,0.07999999821186066,0.3499999940395355,103.19999694824219,10.260000228881836,11.8100004196167,1.3799999952316284,1.3799999952316284,1.3799999952316284
1662031242.0768797,43.4100439,-72.0370097,1675301294.669967,15.93,1662031242.2986858,0.441545695066452,1662031242.0428796,-0.07432544195198046,0.029592713269363854,1662031242.0978796,-0.00023567676544189453,-0.06227374076843262,0.01543688029050827,0.03973440132226361,0.035467914529331145,-0.6011816464126507,-0.7973354578890094,0.044546051528298033,-0.43753009480593197,-0.090959246443591,0.005415097810328007,0.0013176137581467628,0.0003445483162067829,1662031242.457282,220901.0,72041.0,4.949999809265137,15.67300033569336,-0.16699999570846558,0.07000000029802322,6.699999809265137,0.0,0.07999999821186066,0.3400000035762787,103.18000030517578,10.260000228881836,11.770000457763672,1.3600000143051147,1.3700000047683716,1.3600000143051147
1662031243.0978796,43.410041,-72.037008,1675301295.66422,15.9,1662031243.2986953,0.46804964542388916,1662031243.0428796,-0.14865088390396092,0.05918542653872771,1662031243.1178796,0.13863813877105713,-0.39299818873405457,0.02561166137456894,0.03980532286564511,0.0354620837929278,-0.6013690096992317,-0.7971908749214273,0.01086143662694086,-0.4648647982958267,-0.09302769865491967,0.005089014768600464,0.0011414338368922472,0.0003494310658425091,1662031243.457282,220901.0,72042.0,4.949999809265137,15.670999526977539,-0.16699999570846558,0.07000000029802322,6.690000057220459,0.0,0.07999999821186066,0.30000001192092896,103.16000366210938,10.25,11.75,1.3600000143051147,1.2100000381469727,1.3600000143051147
1662031244.0578797,43.4100387,-72.0370072,1675301296.626641,15.88,1662031244.2988436,0.45217111706733704,1662031244.0428796,-0.027872040731992672,0.011097267476011445,1662031244.0968797,0.021446585655212402,-0.013472620397806168,0.007446780800819397,0.0399358243518702,0.03534639149610792,-0.6015250156730835,-0.7970717772327891,-0.006724888035459464,-0.44972354263862346,-0.07896890899445363,0.00584404356777668,0.002136531285941601,0.00046222249511629316,1662031244.457278,220901.0,72043.0,4.949999809265137,15.668999671936035,-0.16699999570846558,0.07000000029802322,6.690000057220459,0.0,0.07999999821186066,0.3199999928474426,103.12000274658203,10.25,11.75,1.340000033378601,1.2799999713897705,1.340000033378601
1662031245.0778797,43.4100382,-72.0370071,1675301297.640775,15.86,1662031245.2987282,0.3956133723258972,1662031245.0428796,-0.13936020365996335,0.055486337380057225,1662031245.1378796,0.029021024703979492,-0.06875085830688477,0.09989190846681595,0.040428524750671165,0.03503208947831316,-0.601697678815177,-0.796930480281496,0.04097457241178945,-0.405704556705272,-0.04719648306639271,0.005026175640523434,0.0015163419302552938,0.0002832983736880122,1662031245.457298,220901.0,72044.0,4.949999809265137,15.666999816894531,-0.16699999570846558,0.07000000029802322,6.679999828338623,0.0,0.07999999821186066,0.30000001192092896,103.08999633789062,10.25,11.6899995803833,1.3600000143051147,1.2100000381469727,1.3600000143051147
1662031246.0578797,43.4100389,-72.0370081,1675301298.617606,15.84,1662031246.2987647,0.349355548620224,1662031246.0428796,-0.34375516902790965,0.1368662988708078,1662031246.0968797,-0.05665314197540283,0.018841318786144257,0.12653405964374542,0.04139303196927563,0.03468100553364677,-0.6018655107312753,-0.7967695725564243,0.10880329328119388,-0.3218763772135113,-0.034363906194379526,0.005160227417945862,0.0013356390409171581,-4.3776235543191596e-05,1662031246.45732,220901.0,72045.0,4.949999809265137,15.663000106811523,-0.16699999570846558,0.07000000029802322,6.679999828338623,0.0,0.07999999821186066,0.28999999165534973,103.05999755859375,10.239999771118164,11.760000228881836,1.399999976158142,1.149999976158142,1.399999976158142
1662031247.0578797,43.4100395,-72.0370069,1675301299.624587,15.83,1662031247.298776,0.41040459275245667,1662031247.0428796,-0.09290680243997558,0.036990891586704815,1662031247.0778797,0.040303587913513184,0.08954712003469467,0.08927507698535919,0.04139624663994342,0.03413839322999085,-0.6019895982522195,-0.7966990927997413,0.15526266056557497,-0.364842207634075,-0.057294847932608875,0.005143485032021999,0.0017392835579812527,0.00015556713333353379,1662031247.457331,220901.0,72046.0,4.949999809265137,15.65999984741211,-0.16699999570846558,0.07000000029802322,6.690000057220459,0.0,0.07999999821186066,0.30000001192092896,103.04000091552734,10.239999771118164,11.819999694824219,1.309999942779541,1.190000057220459,1.309999942779541
1662031248.0768797,43.4100399,-72.0370064,1675301300.646584,15.83,1662031248.298798,0.4187006950378418,1662031248.0428796,-0.03716272097599023,0.014796356634681927,1662031248.0978796,0.08058774471282959,0.13088202476501465,0.040599338710308075,0.04088231410326428,0.03388452331798874,-0.6020296039176776,-0.7967062391369854,0.1562624460209803,-0.38399758941757606,-0.07767483840787653,0.005135763436555862,0.0016083011869341135,0.0003811923670582471,1662031248.45733,220901.0,72047.0,4.949999809265137,15.659000396728516,-0.16699999570846558,0.05999999865889549,6.699999809265137,0.0,0.07999999821186066,0.30000001192092896,103.0199966430664,10.239999771118164,11.770000457763672,1.3600000143051147,1.2200000286102295,1.3600000143051147
1662031249.0578797,43.4100406,-72.0370068,1675301301.618361,15.83,1662031249.298816,0.4080697000026703,1662031249.0428796,-0.04645340121998779,0.018495445793352407,1662031249.0968797,0.047865986824035645,0.20712023973464966,-0.012343011796474457,0.04072242323209598,0.03401749743791202,-0.6020285001941751,-0.7967095951901919,0.14901522380284216,-0.3739370248637766,-0.0892678450372621,0.004919484257698059,0.001439061015844345,0.0001654080697335301,1662031249.457335,220901.0,72048.0,4.949999809265137,15.659000396728516,-0.16699999570846558,0.05999999865889549,6.71999979019165,0.0,0.07999999821186066,0.3199999928474426,102.98999786376953,10.239999771118164,11.75,1.4299999475479126,1.2599999904632568,1.4299999475479126
1662031250.0578797,43.4100424,-72.0370069,1675301302.624056,15.82,1662031250.2987776,0.41775694489479065,1662031250.0428796,-0.009290680243997557,0.0036990891586704817,1662031250.0978796,0.040285348892211914,0.40985485911369324,-0.046696439385414124,0.040792324888981796,0.03376359241689216,-0.6020529604910675,-0.7966983361481301,0.20208990360460766,-0.3598608036306919,-0.09393621214655644,0.005028723739087582,0.0014573123771697283,5.818897625431401e-05,1662031250.457335,220901.0,72049.0,4.949999809265137,15.659000396728516,-0.16699999570846558,0.05999999865889549,6.71999979019165,0.0,0.07999999821186066,0.3199999928474426,102.97000122070312,10.239999771118164,11.800000190734863,1.3700000047683716,1.2799999713897705,1.3700000047683716
1662031251.0768797,43.4100443,-72.037007,1675301303.637341,15.81,1662031251.298792,0.4568018913269043,1662031251.0428796,-0.23226700609993894,0.09247722896676204,1662031251.0978796,0.009515881538391113,0.05888456106185913,0.005679130554199219,0.04085628650409993,0.03370894358332145,-0.602108531850138,-0.7966553752086675,0.24374692844762974,-0.35668948947229734,-0.09816288684428248,0.004784543998539448,0.0016728970222175121,0.0005051342886872587,1662031251.457335,220901.0,72050.0,4.949999809265137,15.656000137329102,-0.16699999570846558,0.05999999865889549,6.659999847412109,0.0,0.07999999821186066,0.3100000023841858,102.94999694824219,10.239999771118164,11.779999732971191,1.3899999856948853,1.2400000095367432,1.3899999856948853
1662031252.0578797,43.4100462,-72.0370063,1675301304.616534,15.81,1662031252.298798,0.46147850155830383,1662031252.0428796,-0.21368564561194384,0.08507905064942108,1662031252.1178796,0.06281733512878418,0.2604728937149048,-0.0476217195391655,0.04066794587279138,0.03315249622645671,-0.602183883295181,-0.7966314084141917,0.25441206861595816,-0.3911929431224492,-0.11422882933641537,0.005012008361518383,0.0014475139323621988,0.00028473488055169566,1662031252.457328,220901.0,72051.0,4.949999809265137,15.64799976348877,-0.16699999570846558,0.05999999865889549,6.610000133514404,0.0,0.07999999821186066,0.3100000023841858,102.93000030517578,10.239999771118164,11.789999961853027,1.3799999952316284,1.2400000095367432,1.3799999952316284
1662031253.0578797,43.4100464,-72.0370074,1675301305.616903,15.82,1662031253.298939,0.4069550931453705,1662031253.0428796,-0.2880110875639243,0.11467176391878493,1662031253.0968797,-0.0337522029876709,0.28715354204177856,-0.11090647429227829,0.039896620944946844,0.03410824888386516,-0.6020636802550995,-0.7967209121850243,0.17332977367491076,-0.3741017893034139,-0.13275655333247108,0.0049684541299939156,0.0014240415766835213,0.0005388289573602376,1662031253.457342,220901.0,72052.0,4.949999809265137,15.637999534606934,-0.16699999570846558,0.07000000029802322,6.619999885559082,0.0,0.07999999821186066,0.28999999165534973,102.9000015258789,10.229999542236328,11.819999694824219,1.3700000047683716,1.149999976158142,1.3799999952316284
1662031254.0768797,43.4100476,-72.0370091,1675301306.64387,15.82,1662031254.298861,0.37086960673332214,1662031254.0428796,-0.0650347617079829,0.025893624110693375,1662031254.0978796,-0.1622331142425537,0.4154648780822754,-0.16808560490608215,0.03968773665259787,0.03478721985351718,-0.6020436734779397,-0.7967171067069194,0.1345871674591612,-0.3330101446992482,-0.14072110760884077,0.005036373622715473,0.0018288372084498405,0.00025943171931430676,1662031254.457336,220901.0,72053.0,4.949999809265137,15.630999565124512,-0.16699999570846558,0.07000000029802322,6.630000114440918,0.0,0.07999999821186066,0.27000001072883606,102.87999725341797,10.229999542236328,11.770000457763672,1.3600000143051147,1.100000023841858,1.3600000143051147
1662031255.0578797,43.4100503,-72.0370085,1675301307.616908,15.81,1662031255.2988303,0.42280369997024536,1662031255.0428796,-0.23226700609993894,0.09247722896676204,1662031255.0978796,0.025589823722839355,0.07400023937225342,0.013774365186691284,0.03968059776343606,0.03460306189812671,-0.6020955068623943,-0.7966863114705357,0.18592330382214295,-0.3567140427392022,-0.13379510857436383,0.004944902844727039,0.0011393905151635408,4.850502591580013e-06,1662031255.457343,220901.0,72054.0,4.949999809265137,15.626999855041504,-0.16699999570846558,0.07000000029802322,6.650000095367432,0.0,0.09000000357627869,0.28999999165534973,102.87000274658203,10.229999542236328,11.880000114440918,1.350000023841858,1.159999966621399,1.350000023841858
1662031256.0578797,43.4100532,-72.0370076,1675301308.616197,15.81,1662031256.2988062,0.43922266364097595,1662031256.0428796,-0.18581360487995116,0.07398178317340963,1662031256.1178796,0.09827375411987305,0.40611767768859863,0.07007205486297607,0.039370075601089544,0.03415879283526632,-0.6021391130213205,-0.7966879330008075,0.209218573887786,-0.37819202391377593,-0.11409753957296034,0.004881986416876316,0.0017990556079894304,0.0003592610009945927,1662031256.457342,220901.0,72055.0,4.949999809265137,15.62399959564209,-0.16699999570846558,0.07000000029802322,6.650000095367432,0.0,0.09000000357627869,0.2800000011920929,102.86000061035156,10.229999542236328,11.829999923706055,1.3600000143051147,1.1299999952316284,1.3600000143051147
1662031257.0768797,43.4100568,-72.0370074,1675301309.642987,15.8,1662031257.2988567,0.41927850246429443,1662031257.0428796,-0.1765229246359536,0.07028269401473915,1662031257.0978796,-0.0022972822189331055,0.08321452140808105,0.00231131911277771,0.03936683158583276,0.034339623106868965,-0.6021820350794761,-0.7966478767205192,0.2310723989376873,-0.3615081629009155,-0.10664632066464173,0.004852623678743839,0.0016283879522234201,2.757663605734686e-05,1662031257.457335,220901.0,72056.0,4.949999809265137,15.621999740600586,-0.16699999570846558,0.07000000029802322,6.630000114440918,0.0,0.07999999821186066,0.27000001072883606,102.83999633789062,10.229999542236328,11.720000267028809,1.350000023841858,1.059999942779541,1.350000023841858
1662031258.0978796,43.4100597,-72.0370071,1675301310.656382,15.8,1662031258.2990015,0.4329509437084198,1662031258.0428796,-0.03716272097599023,0.014796356634681927,1662031258.1178796,0.024270296096801758,0.3947923183441162,0.006766468286514282,0.0393641679144111,0.03487225174390085,-0.6021579809080497,-0.7966430533001946,0.19976992590725243,-0.370977926242083,-0.10778215881048507,0.004591949284076691,0.0011439460795372725,0.0002649282105267046,1662031258.45734,220901.0,72057.0,4.949999809265137,15.614999771118164,-0.16699999570846558,0.05999999865889549,6.599999904632568,0.0,0.07999999821186066,0.27000001072883606,102.83000183105469,10.229999542236328,11.75,1.350000023841858,1.090000033378601,1.350000023841858
1662031259.0768797,43.4100627,-72.0370061,1675301311.636831,15.8,1662031259.2989528,0.4360165297985077,1662031259.0428796,-0.04645340121998779,0.018495445793352407,1662031259.0978796,0.013303875923156738,0.0682072639465332,-0.00499725341796875,0.03900684344181205,0.03494263296458966,-0.6021816180559683,-0.7966396785509143,0.20276403149712782,-0.37964075780477663,-0.11602161348862997,0.004783552139997482,0.001239283476024866,0.00012881803559139355,1662031259.457333,220901.0,72058.0,4.949999809265137,15.609000205993652,-0.16699999570846558,0.07000000029802322,6.599999904632568,0.0,0.07999999821186066,0.23999999463558197,102.83000183105469,10.229999542236328,11.720000267028809,1.309999942779541,0.9599999785423279,1.3200000524520874
1662031260.0778797,43.4100658,-72.0370054,1675301312.643247,15.79,1662031260.298945,0.4491892158985138,1662031260.0428796,-0.4325154049876226,-0.28867009621433404,1662031260.0978796,0.07259261608123779,0.4160118103027344,-0.013039082288742065,0.03901086178284084,0.035261212811251094,-0.6022107645892918,-0.7966034110815875,0.2063216313032398,-0.37806032648976795,-0.10954692576110209,0.004866398870944977,0.0015869354829192162,0.00036435324000194647,1662031260.457326,220901.0,72059.0,4.949999809265137,15.602999687194824,-0.16699999570846558,0.07000000029802322,6.630000114440918,0.0,0.09000000357627869,0.2199999988079071,102.81999969482422,10.229999542236328,11.739999771118164,1.3200000524520874,0.8899999856948853,1.3200000524520874
1662031261.0578797,43.4100686,-72.037003,1675301313.616442,15.78,1662031261.298918,0.5258112549781799,1662031261.0428796,-0.10812885124690565,-0.07216752405358351,1662031261.0978796,0.03842031955718994,0.07732677459716797,0.011843353509902954,0.038493320336435516,0.03482026592817703,-0.6022519429841643,-0.7966168530366191,0.22772643458843053,-0.4499383532491769,-0.11019471701507019,0.0043472591787576675,0.0012278452049940825,4.3337116949260086e-05,1662031261.457342,220901.0,72100.0,4.949999809265137,15.600000381469727,-0.16699999570846558,0.07000000029802322,6.650000095367432,0.0,0.09000000357627869,0.25999999046325684,102.80999755859375,10.229999542236328,11.75,1.350000023841858,1.0299999713897705,1.350000023841858
1662031262.0578797,43.410072,-72.0370019,1675301314.616778,15.78,1662031262.2989526,0.5014296174049377,1662031262.0428796,-0.11644645518897531,-0.07771887205770532,1662031262.1178796,0.1194460391998291,0.45998167991638184,0.09118342399597168,0.03875175288892986,0.03441047800043379,-0.602321195909249,-0.7965697694554252,0.25355096198315846,-0.4348056427385934,-0.08500302296541662,0.004807057790458202,0.0015550083480775356,0.00022116390755400043,1662031262.457332,220901.0,72101.0,4.949999809265137,15.595999717712402,-0.16699999570846558,0.07000000029802322,6.670000076293945,0.0,0.07999999821186066,0.36000001430511475,102.80000305175781,10.229999542236328,11.75,1.3899999856948853,1.4299999475479126,1.3899999856948853
1662031263.0978796,43.4100745,-72.0370008,1675301315.664761,15.78,1662031263.2989812,0.5134661793708801,1662031263.0428796,-0.10812885124690565,-0.07216752405358351,1662031263.1178796,0.029886245727539062,0.051494598388671875,0.013887498527765274,0.038615734780014954,0.03478391917697039,-0.6023121405833242,-0.7965670023921549,0.2369415267424372,-0.44986340678053904,-0.07176964984073952,0.005060805007815361,0.0009719484951347113,0.00037167227128520597,1662031263.457334,220901.0,72102.0,4.949999809265137,15.595000267028809,-0.16599999368190765,0.05999999865889549,6.690000057220459,0.0,0.07999999821186066,0.3199999928474426,102.77999877929688,10.229999542236328,11.819999694824219,1.440000057220459,1.2799999713897705,1.440000057220459
1662031264.0578797,43.4100763,-72.0369996,1675301316.622257,15.78,1662031264.2989998,0.5230162739753723,1662031264.0428796,-0.19962249460967194,-0.13323235209892337,1662031264.1178796,0.13181138038635254,0.2639894485473633,-0.006609611213207245,0.038472208034000796,0.03474357891854626,-0.6023205772824438,-0.7965693285050982,0.22781004223500972,-0.4602417081580267,-0.08802611971779178,0.004850057885050774,0.001796031603589654,-9.099545422941667e-06,1662031264.457331,220901.0,72103.0,4.949999809265137,15.597000122070312,-0.16699999570846558,0.07000000029802322,6.730000019073486,0.0,0.07999999821186066,0.3100000023841858,102.7699966430664,10.229999542236328,11.8100004196167,1.409999966621399,1.25,1.409999966621399
1662031265.0778797,43.4100786,-72.0369985,1675301317.637085,15.78,1662031265.2989466,0.5259376168251038,1662031265.0428796,-0.09981124730483597,-0.06661617604946168,1662031265.0978796,0.22086596488952637,0.5057744979858398,-0.004019103944301605,0.03875464769288263,0.03466223401474046,-0.6023355919532039,-0.7965478274916652,0.24803648503093326,-0.4560866997033603,-0.08629612230135685,0.004789930768311024,0.0017471034079790115,0.00039750809082761385,1662031265.457366,220901.0,72104.0,4.949999809265137,15.598999977111816,-0.16699999570846558,0.07000000029802322,6.760000228881836,0.0,0.07999999821186066,0.3199999928474426,102.77999877929688,10.229999542236328,11.819999694824219,1.350000023841858,1.2899999618530273,1.350000023841858
1662031266.0768797,43.41008,-72.0369977,1675301318.635653,15.77,1662031266.2989645,0.49743106961250305,1662031266.0428796,-0.01663520788413933,-0.011102696008243616,1662031266.0978796,0.006223917007446289,0.03478288650512695,0.004337094724178314,0.03880336456699469,0.03469824389268642,-0.6023460612232812,-0.7965359711261278,0.22524380567724817,-0.44577444173596814,-0.08591548995128209,0.004558497108519077,0.0015566747169941664,2.314668381586652e-05,1662031266.457344,220901.0,72105.0,4.949999809265137,15.598999977111816,-0.16699999570846558,0.05999999865889549,6.71999979019165,0.0,0.07999999821186066,0.3100000023841858,102.79000091552734,10.229999542236328,11.869999885559082,1.3899999856948853,1.25,1.3899999856948853
1662031267.0578797,43.4100807,-72.0369981,1675301319.62278,15.76,1662031267.2989926,0.4329630136489868,1662031267.0428796,-0.03327041576827866,-0.022205392016487233,1662031267.0978796,-0.027298927307128906,0.10785388946533203,-0.014339514076709747,0.038968503201238604,0.035092719168404285,-0.6024262184007316,-0.7964500035802726,0.16671416399529343,-0.40653743562558065,-0.09640255905748953,0.004711763933300972,0.001452963799238205,0.0006014949176460502,1662031267.457345,220901.0,72106.0,4.949999809265137,15.598999977111816,-0.16699999570846558,0.05999999865889549,6.690000057220459,0.0,0.07999999821186066,0.3199999928474426,102.80000305175781,10.229999542236328,11.869999885559082,1.3799999952316284,1.2699999809265137,1.3799999952316284
1662031268.0778797,43.41008,-72.036999,1675301320.637263,15.75,1662031268.2989876,0.3939230144023895,1662031268.0428796,-0.09149364336276632,-0.061064828045339886,1662031268.1178796,-0.09675168991088867,0.016427993774414062,-0.07262884080410004,0.03901624835091525,0.03585072024502534,-0.6024418849837447,-0.7964020551453678,0.06249834279963458,-0.37338556911782184,-0.1074721266605113,0.004916085861623287,0.0016943488735705614,0.00032661767909303286,1662031268.457325,220901.0,72107.0,4.949999809265137,15.597000122070312,-0.16699999570846558,0.07000000029802322,6.710000038146973,0.0,0.07999999821186066,0.3100000023841858,102.80000305175781,10.239999771118164,11.84000015258789,1.2899999618530273,1.2200000286102295,1.2899999618530273
1662031269.0978796,43.4100781,-72.0369977,1675301321.656439,15.74,1662031269.2990172,0.44092974066734314,1662031269.0428796,-0.13308166307311464,-0.08882156806594893,1662031269.1178796,0.005318641662597656,-0.18497085571289062,-0.11882419884204865,0.03835271930631496,0.035969958316106124,-0.6024646637219117,-0.7964116774551919,-0.008551539189274314,-0.415622251776669,-0.12798874651771486,0.004958564415574074,0.001400423003360629,0.0002942507271654902,1662031269.457336,220901.0,72108.0,4.949999809265137,15.595000267028809,-0.16599999368190765,0.07000000029802322,6.679999828338623,0.0,0.07999999821186066,0.28999999165534973,102.80999755859375,10.239999771118164,11.829999923706055,1.309999942779541,1.149999976158142,1.3200000524520874
1662031270.0578797,43.4100763,-72.0369957,1675301322.62177,15.72,1662031270.29903,0.49225637316703796,1662031270.0428796,-0.01663520788413933,-0.011102696008243616,1662031270.0968797,0.1763627529144287,-0.39527225494384766,-0.08288928866386414,0.03810663335084993,0.035810653029042606,-0.6026138381988672,-0.7963178031637413,-0.034195550962808165,-0.47670518730178196,-0.11486478059942662,0.004763361066579819,0.0019756320398300886,0.0001301416195929048,1662031270.457326,220901.0,72109.0,4.949999809265137,15.593000411987305,-0.16599999368190765,0.07000000029802322,6.650000095367432,0.0,0.07999999821186066,0.28999999165534973,102.80000305175781,10.239999771118164,11.770000457763672,1.3899999856948853,1.1699999570846558,1.3899999856948853
1662031271.0768797,43.4100745,-72.0369933,1675301323.635662,15.71,1662031271.2990556,0.5424009561538696,1662031271.0428796,-0.09149364336276632,-0.061064828045339886,1662031271.0978796,0.044785499572753906,-0.01615762710571289,0.011128902435302734,0.03808183478327174,0.03535780556460835,-0.6027512134937935,-0.7962352504611652,-0.023253869981530007,-0.5206897617543391,-0.11572105368932836,0.005087243393063545,0.0023328105453401804,0.0002289410331286487,1662031271.457339,220901.0,72110.0,4.949999809265137,15.588000297546387,-0.16599999368190765,0.05999999865889549,6.670000076293945,0.0,0.07999999821186066,0.30000001192092896,102.80000305175781,10.239999771118164,11.739999771118164,1.3899999856948853,1.2000000476837158,1.3899999856948853
1662031272.0978796,43.4100734,-72.0369906,1675301324.657153,15.69,1662031272.299033,0.5586421489715576,1662031272.0428796,-0.24952811826208993,-0.16654044012365424,1662031272.1178796,0.25579261779785156,-0.14608216285705566,0.027684040367603302,0.03827852415363217,0.034477915896057094,-0.6029369836466287,-0.79612374770207,0.024474629629463066,-0.5561015101749515,-0.11022905136736409,0.005242223851382732,0.0048627546057105064,0.0007938648923300201,1662031272.457323,220901.0,72111.0,4.949999809265137,15.586000442504883,-0.16599999368190765,0.05999999865889549,6.739999771118164,0.0,0.07999999821186066,0.28999999165534973,102.81999969482422,10.239999771118164,11.789999961853027,1.3899999856948853,1.159999966621399,1.3899999856948853
1662031273.0578797,43.4100729,-72.0369897,1675301325.617025,15.67,1662031273.3191154,0.5469288229942322,1662031273.0428796,-0.06654083153655732,-0.044410784032974465,1662031273.0978796,0.33130693435668945,-0.19937849044799805,0.056795865297317505,0.039079803965961064,0.03391430582723251,-0.6030834765016961,-0.7959980585107397,0.0777489058796844,-0.5330075010887702,-0.10450945233701733,0.00504833459854126,0.0012075956910848618,0.00039596483111381514,1662031273.457328,220901.0,72112.0,4.949999809265137,15.58899974822998,-0.16599999368190765,0.05999999865889549,6.760000228881836,0.0,0.07999999821186066,0.28999999165534973,102.83000183105469,10.239999771118164,11.760000228881836,1.3899999856948853,1.1399999856948853,1.3899999856948853
1662031274.0768797,43.4100715,-72.036989,1675301326.636342,15.66,1662031274.2981102,0.5447038412094116,1662031274.0428796,-0.13923832943675615,0.21957387735261535,1662031274.0978796,0.02042365074157715,0.03951430320739746,0.003386855125427246,0.03896993225222305,0.034052322568435205,-0.6031309095085098,-0.7959616132097012,0.09749089608516345,-0.5224020998176592,-0.1040562911580884,0.004504368640482426,0.0010842080228030682,0.00017332925926893936,1662031274.457328,220901.0,72113.0,4.949999809265137,15.592000007629395,-0.16599999368190765,0.07000000029802322,6.760000228881836,0.0,0.07999999821186066,0.3100000023841858,102.83999633789062,10.239999771118164,11.710000038146973,1.3700000047683716,1.2200000286102295,1.3700000047683716
1662031275.0768797,43.410072,-72.0369884,1675301327.642627,15.65,1662031275.298061,0.505524754524231,1662031275.0428796,-0.07497448508133024,0.11823208780525443,1662031275.0978796,0.06840682029724121,0.09044170379638672,0.05758487433195114,0.04029068592661015,0.03298886304838711,-0.6033251389632713,-0.7957934230925057,0.18624378246483853,-0.47958636860144027,-0.07536818949403948,0.004394762217998505,0.0019482155330479145,0.00015603261999785876,1662031275.457336,220901.0,72114.0,4.949999809265137,15.592000007629395,-0.16599999368190765,0.07000000029802322,6.699999809265137,0.0,0.07999999821186066,0.28999999165534973,102.83999633789062,10.239999771118164,11.710000038146973,1.409999966621399,1.1699999570846558,1.409999966621399
1662031276.0578797,43.4100694,-72.0369887,1675301328.61642,15.65,1662031276.29814,0.4817589819431305,1662031276.0428796,-0.04284256290361728,0.06756119303157396,1662031276.0978796,0.05074167251586914,-0.2129533290863037,0.08393426239490509,0.04053658490896284,0.0337942051332287,-0.6032890040120935,-0.7957745375553479,0.11572175774338102,-0.4580444425547132,-0.06575257524157369,0.00477247592061758,0.001094770384952426,0.0003683581599034368,1662031276.457324,220901.0,72115.0,4.949999809265137,15.586999893188477,-0.16599999368190765,0.07000000029802322,6.650000095367432,0.0,0.07999999821186066,0.28999999165534973,102.8499984741211,10.239999771118164,11.710000038146973,1.3799999952316284,1.1399999856948853,1.3799999952316284
1662031277.0578797,43.4100664,-72.0369877,1675301329.623777,15.64,1662031277.29814,0.4798336625099182,1662031277.0428796,-0.053553203629521595,0.08445149128946744,1662031277.0968797,0.027396202087402344,-0.04257011413574219,-0.0016578235663473606,0.04007352325965638,0.033990224709678184,-0.6032826720145454,-0.7957944426827406,0.08589443502126387,-0.4699979293055258,-0.07280937564036385,0.005038614384829998,0.0014177931006997824,0.00020892790053039773,1662031277.457328,220901.0,72116.0,4.949999809265137,15.579999923706055,-0.16599999368190765,0.07000000029802322,6.639999866485596,0.0,0.07999999821186066,0.28999999165534973,102.8499984741211,10.239999771118164,11.789999961853027,1.3700000047683716,1.149999976158142,1.3700000047683716
1662031278.0778797,43.4100635,-72.036987,1675301330.645507,15.64,1662031278.2981086,0.4691755473613739,1662031278.0448797,-0.06426384435542591,0.10134178954736092,1662031278.0978796,0.0830843448638916,-0.3724944591522217,-0.029548710212111473,0.04025205864097984,0.03401037309502111,-0.6033383526293608,-0.7957423568866934,0.048820319808474226,-0.45924178006722394,-0.08378670543151914,0.0046495432034134865,0.001626238925382495,0.0002442538971081374,1662031278.457281,220901.0,72117.0,4.949999809265137,15.576000213623047,-0.16599999368190765,0.07000000029802322,6.679999828338623,0.0,0.07999999821186066,0.28999999165534973,102.83999633789062,10.239999771118164,11.829999923706055,1.3300000429153442,1.1699999570846558,1.3300000429153442
1662031279.0978796,43.4100607,-72.0369861,1675301331.656252,15.63,1662031279.2981315,0.46388810873031616,1662031279.0448797,-0.03748724254066512,0.059116043902627216,1662031279.1178796,0.018800020217895508,-0.030866384506225586,-0.0001401938498020172,0.04010073368730192,0.034132125900056674,-0.6033679842864478,-0.7957223163122873,0.04556996003125771,-0.4583035337302819,-0.0894325138606464,0.004956417717039585,0.0015155680011957884,0.00024580897297710164,1662031279.457337,220901.0,72118.0,4.949999809265137,15.57699966430664,-0.16599999368190765,0.05999999865889549,6.809999942779541,0.0,0.07999999821186066,0.3199999928474426,102.83999633789062,10.239999771118164,11.800000190734863,1.309999942779541,1.2599999904632568,1.309999942779541
1662031280.0778797,43.4100595,-72.0369864,1675301332.63802,15.62,1662031280.2981968,0.4049937427043915,1662031280.0448797,-0.16601493125151695,0.26179962299734905,1662031280.1178796,-0.008384227752685547,-0.162245512008667,-0.001858588308095932,0.04076276406224045,0.033723333265869244,-0.6034516423527232,-0.7956426642665956,0.08989427989237826,-0.38774384962350966,-0.08159681029364949,0.004690217785537243,0.0023983451537787914,0.00032022327650338384,1662031280.45733,220901.0,72119.0,4.949999809265137,15.57800006866455,-0.16599999368190765,0.05999999865889549,6.840000152587891,0.0,0.07000000029802322,0.30000001192092896,102.83999633789062,10.239999771118164,11.84000015258789,1.3799999952316284,1.190000057220459,1.3899999856948853
1662031281.0768797,43.4100567,-72.0369851,1675301333.64167,15.61,1662031281.2981443,0.4459927976131439,1662031281.0448797,-0.026776601814760798,0.04222574564473372,1662031281.1178796,0.10293269157409668,-0.4922664165496826,0.007887296378612518,0.04071980153540892,0.03387267319519758,-0.6035263517892795,-0.7955818515209173,0.04835352616999498,-0.4326116546445505,-0.07790491134771083,0.0048667509108781815,0.0015828469768166542,0.00022768054623156767,1662031281.457323,220901.0,72120.0,4.949999809265137,15.581999778747559,-0.16699999570846558,0.05999999865889549,6.880000114440918,0.0,0.07999999821186066,0.2800000011920929,102.86000061035156,10.239999771118164,11.880000114440918,1.3700000047683716,1.100000023841858,1.3700000047683716
1662031282.0778797,43.4100544,-72.0369838,1675301334.636891,15.59,1662031282.298198,0.45184260606765747,1662031282.0448797,-0.026776601814760798,0.04222574564473372,1662031282.0978796,0.023718595504760742,-0.02259206771850586,0.009954195469617844,0.04046262636861407,0.03375675724946372,-0.6036355276780236,-0.7955170689131872,0.07305178323844995,-0.43784118033705516,-0.07238708521203907,0.004746820777654648,0.0013694660738110542,0.0003454537945799528,1662031282.457324,220901.0,72121.0,4.949999809265137,15.586999893188477,-0.16599999368190765,0.07000000029802322,6.900000095367432,0.0,0.07999999821186066,0.25999999046325684,102.87999725341797,10.25,11.9399995803833,1.3200000524520874,1.0299999713897705,1.3200000524520874
1662031283.0578797,43.4100521,-72.0369833,1675301335.617539,15.58,1662031283.2982264,0.4323144853115082,1662031283.0448797,-0.02142128145180864,0.03378059651578698,1662031283.0968797,0.06742525100708008,-0.28344523906707764,0.019631072878837585,0.04076722125352649,0.033615080493615265,-0.603747672457872,-0.7954224085581043,0.06501968313905902,-0.42230439217081894,-0.07226614289912292,0.0051613980904221535,0.001345115015283227,9.54756978899224e-06,1662031283.457332,220901.0,72122.0,4.949999809265137,15.593999862670898,-0.16599999368190765,0.07000000029802322,6.900000095367432,0.0,0.07999999821186066,0.2800000011920929,102.91000366210938,10.25,11.90999984741211,1.340000033378601,1.1200000047683716,1.340000033378601
1662031284.0778797,43.4100496,-72.0369822,1675301336.64591,15.58,1662031284.2981448,0.4565449655056,1662031284.0448797,-0.04819788326656944,0.0760063421605207,1662031284.0978796,0.017502307891845703,-0.035225749015808105,-0.0003647860139608383,0.040421018128657595,0.03371900625542177,-0.6037587533933769,-0.795427267329619,0.06271171126474165,-0.4462126127672201,-0.08280177332404945,0.005108986981213093,0.0015525496564805508,0.0004077784251421688,1662031284.457323,220901.0,72123.0,4.960000038146973,15.602999687194824,-0.16599999368190765,0.07000000029802322,6.909999847412109,0.0,0.07999999821186066,0.28999999165534973,102.94999694824219,10.25,11.829999923706055,1.3200000524520874,1.149999976158142,1.3300000429153442
1662031285.0578797,43.4100475,-72.0369823,1675301337.623967,15.58,1662031285.298137,0.42557716369628906,1662031285.0448797,-0.05890852399247375,0.09289664041841418,1662031285.0968797,0.0022416114807128906,-0.26319873332977295,-0.02397141419351101,0.040585004856654346,0.03366704155785119,-0.6037862162267138,-0.7954002720568778,0.065373926768418,-0.41809167560248406,-0.08486898576880887,0.00486480537801981,0.0012542691547423601,0.00025676115183159693,1662031285.457319,220901.0,72124.0,4.960000038146973,15.61299991607666,-0.16599999368190765,0.07000000029802322,6.920000076293945,0.0,0.09000000357627869,0.28999999165534973,102.97000122070312,10.25,11.869999885559082,1.25,1.149999976158142,1.25
1662031286.0768797,43.4100459,-72.0369822,1675301338.635484,15.57,1662031286.2981892,0.42414674162864685,1662031286.0448797,-0.06426384435542591,0.10134178954736092,1662031286.0978796,0.011525392532348633,-0.44283849000930786,-0.0641966387629509,0.040757010473973836,0.03355635958647768,-0.6038082956508066,-0.7953793930771628,0.07904291592308901,-0.4086966738579308,-0.09309130657145467,0.005030632019042969,0.0017570811323821545,4.23364690504966e-05,1662031286.457334,220901.0,72125.0,4.960000038146973,15.619999885559082,-0.16699999570846558,0.07000000029802322,6.920000076293945,0.0,0.09000000357627869,0.33000001311302185,102.98999786376953,10.25,11.989999771118164,1.2599999904632568,1.309999942779541,1.2599999904632568
1662031287.0768797,43.4100446,-72.0369828,1675301339.644176,15.57,1662031287.2981622,0.3904503881931305,1662031287.0448797,-0.053553203629521595,0.08445149128946744,1662031287.0978796,-0.002849102020263672,-0.01826244592666626,0.00018148869276046753,0.04083452528900436,0.033792462009233006,-0.6037974502532467,-0.795373654406188,0.08743871363153215,-0.3654550151506209,-0.09413398455954716,0.005068677477538586,0.0013421133626252413,0.0002230061800219117,1662031287.457342,220901.0,72126.0,4.960000038146973,15.628000259399414,-0.16599999368190765,0.07000000029802322,6.929999828338623,0.0,0.07999999821186066,0.3100000023841858,103.01000213623047,10.25,12.029999732971191,1.3200000524520874,1.2300000190734863,1.3200000524520874
1662031288.0978796,43.410044,-72.0369817,1675301340.663793,15.57,1662031288.298259,0.43371865153312683,1662031288.0448797,-0.07497448508133024,0.11823208780525443,1662031288.1178796,0.08882427215576172,-0.08600205183029175,-0.03425069898366928,0.04077513153683547,0.03361597393385465,-0.6038493682399461,-0.7953447651307264,0.13024276096558668,-0.39211900102310093,-0.10719527298300087,0.004931150935590267,0.0014637198764830828,0.0002939446130767463,1662031288.457333,220901.0,72127.0,4.960000038146973,15.635000228881836,-0.16599999368190765,0.07000000029802322,6.949999809265137,0.0,0.07999999821186066,0.2800000011920929,103.02999877929688,10.25,11.949999809265137,1.3200000524520874,1.100000023841858,1.3300000429153442
1662031289.0768797,43.410045,-72.0369792,1675301341.637983,15.56,1662031289.2982244,0.502548336982727,1662031289.0448797,-0.00535532036295216,0.008445149128946745,1662031289.0978796,0.2886238098144531,0.024734318256378174,0.010706841945648193,0.04082066433762037,0.03267697910748645,-0.603953671223788,-0.7953023647737714,0.22306502756910007,-0.4414449312605608,-0.094992386184166,0.004916738718748093,0.001649065874516964,0.0002909076283685861,1662031289.45734,220901.0,72128.0,4.960000038146973,15.642999649047852,-0.16599999368190765,0.07000000029802322,6.949999809265137,0.0,0.07999999821186066,0.2800000011920929,103.04000091552734,10.25,11.84000015258789,1.350000023841858,1.100000023841858,1.350000023841858
1662031290.0778797,43.4100448,-72.0369787,1675301342.636172,15.57,1662031290.3182585,0.47743430733680725,1662031290.0448797,-0.03748724254066512,0.059116043902627216,1662031290.0978796,0.3301560878753662,0.002856314182281494,0.07417721301317215,0.04069234173837871,0.03306313060591982,-0.6038709770629549,-0.7953557730848596,0.19725639845786408,-0.42513885615422053,-0.07136902429884667,0.00480999331921339,0.0016544254031032324,0.00022178818471729736,1662031290.457333,220901.0,72129.0,4.960000038146973,15.64900016784668,-0.16699999570846558,0.07000000029802322,6.929999828338623,0.0,0.09000000357627869,0.28999999165534973,103.08000183105469,10.25,11.819999694824219,1.3799999952316284,1.149999976158142,1.3799999952316284
1662031291.0778797,43.410045,-72.0369779,1675301343.644404,15.57,1662031291.2982655,0.4652460515499115,1662031291.0448797,-0.053553203629521595,0.08445149128946744,1662031291.0978796,0.39055967330932617,0.026540696620941162,0.09090737253427505,0.04039151775529468,0.03335447362288972,-0.6038624415640975,-0.7953654229667082,0.20266207853749982,-0.4176802984632048,-0.06710076607263829,0.004811798222362995,0.001565003301948309,0.00040004035690799334,1662031291.457342,220901.0,72130.0,4.960000038146973,15.656000137329102,-0.16699999570846558,0.07000000029802322,6.909999847412109,0.0,0.09000000357627869,0.25999999046325684,103.11000061035156,10.25,11.779999732971191,1.309999942779541,1.0199999809265137,1.309999942779541
1662031292.0578797,43.4100452,-72.0369776,1675301344.627696,15.57,1662031292.298266,0.4672877788543701,1662031292.0438797,-0.08032980544428239,0.12667723693420116,1662031292.1178796,0.4309418201446533,0.04902762174606323,0.044706717133522034,0.04050434305365545,0.03367990393201913,-0.603885367455547,-0.7953285643292343,0.1888302821397488,-0.4124898896772376,-0.07615284850768263,0.00474836491048336,0.0012166891247034073,0.000239083427004516,1662031292.457326,220901.0,72131.0,4.960000038146973,15.65999984741211,-0.16599999368190765,0.07000000029802322,6.889999866485596,0.0,0.07999999821186066,0.23000000417232513,103.12999725341797,10.260000228881836,11.819999694824219,1.340000033378601,0.9200000166893005,1.340000033378601
1662031293.0768797,43.4100454,-72.0369766,1675301345.636725,15.57,1662031293.2983303,0.45328208804130554,1662031293.0438797,-0.08032980544428239,0.12667723693420116,1662031293.0978796,0.5011515617370605,0.07630205154418945,0.04275641217827797,0.0400389878185301,0.033710529921667544,-0.6038536199787403,-0.7953749337673642,0.1800347487952184,-0.42062019169649595,-0.07824300609635632,0.004677494056522846,0.0015537792351096869,0.00022861309116706233,1662031293.457335,220901.0,72132.0,4.960000038146973,15.664999961853027,-0.16599999368190765,0.07000000029802322,6.75,0.0,0.07999999821186066,0.28999999165534973,103.1500015258789,10.260000228881836,11.859999656677246,1.3799999952316284,1.1399999856948853,1.3799999952316284
1662031294.0768797,43.4100451,-72.0369779,1675301346.636304,15.57,1662031294.2982848,0.3677331209182739,1662031294.0438797,-0.09104044617018672,0.14356753519209467,1662031294.0978796,0.39351749420166016,0.03134864568710327,-0.0019828379154205322,0.040057867424703686,0.03435530412061145,-0.6038211813714645,-0.795371021136258,0.10605961026575682,-0.36019065360089286,-0.08762577419908942,0.004648598842322826,0.0014997371472418308,0.00033694203011691554,1662031294.45733,220901.0,72133.0,4.949999809265137,15.668000221252441,-0.16699999570846558,0.07000000029802322,6.769999980926514,0.0,0.07999999821186066,0.3100000023841858,103.1500015258789,10.260000228881836,11.789999961853027,1.2899999618530273,1.2200000286102295,1.2899999618530273
1662031295.0768797,43.4100448,-72.036979,1675301347.635727,15.56,1662031295.2983449,0.341751366853714,1662031295.0438797,-0.09104044617018672,0.14356753519209467,1662031295.0978796,0.3059713840484619,0.001371920108795166,-0.035287968814373016,0.0396412040049521,0.0353175412543343,-0.6037666761272409,-0.7953911283281009,0.055717985455355404,-0.32489245694520485,-0.09355975464231699,0.004812098108232021,0.0016079049091786146,2.8546783141791624e-05,1662031295.457341,220901.0,72134.0,4.949999809265137,15.666999816894531,-0.16699999570846558,0.07000000029802322,6.75,0.0,0.07999999821186066,0.33000001311302185,103.1500015258789,10.25,11.800000190734863,1.2599999904632568,1.2999999523162842,1.2599999904632568
1662031296.0768797,43.4100456,-72.0369786,1675301348.635274,15.55,1662031296.2983837,0.3686150014400482,1662031296.0438797,-0.04819788326656944,0.0760063421605207,1662031296.0978796,0.34084486961364746,0.09493911266326904,-0.025730088353157043,0.039560190280902754,0.03523049044830572,-0.6038473593802177,-0.7953377713005017,0.06934363094506955,-0.34370824379603604,-0.09356234132785667,0.0047833966091275215,0.001364798517897725,0.00037874898407608254,1662031296.45733,220901.0,72135.0,4.949999809265137,15.666000366210938,-0.16599999368190765,0.07000000029802322,6.739999771118164,0.0,0.07999999821186066,0.33000001311302185,103.12999725341797,10.25,11.8100004196167,1.350000023841858,1.3300000429153442,1.3600000143051147
1662031297.0578797,43.4100475,-72.0369781,1675301349.623578,15.54,1662031297.2983334,0.3635919392108917,1662031297.0438797,-0.03748724254066512,0.059116043902627216,1662031297.0978796,0.37513160705566406,0.3104439973831177,-0.05619746446609497,0.039607637249744976,0.03482281121039723,-0.6039605817189991,-0.7952673906432641,0.10509124121345452,-0.3458043408035361,-0.1048869808022866,0.004783055745065212,0.0015807687304913998,0.00014188204659149032,1662031297.457331,220901.0,72136.0,4.949999809265137,15.65999984741211,-0.16599999368190765,0.07000000029802322,6.739999771118164,0.0,0.07999999821186066,0.30000001192092896,103.12000274658203,10.25,11.800000190734863,1.4500000476837158,1.190000057220459,1.4600000381469727
1662031298.0768797,43.4100503,-72.0369781,1675301350.63679,15.54,1662031298.2983806,0.39001739025115967,1662031298.0438797,-0.032131922177712956,0.05067089477368046,1662031298.0978796,0.011471271514892578,0.0763390064239502,0.008038520812988281,0.03967435826402058,0.034758726097310545,-0.6039829446088828,-0.7952498845507703,0.15565396067147516,-0.3418261632742811,-0.11222568262044534,0.0050567081198096275,0.0012531778775155544,0.00038558617234230025,1662031298.457329,220901.0,72137.0,4.949999809265137,15.651000022888184,-0.16599999368190765,0.05999999865889549,6.71999979019165,0.0,0.07999999821186066,0.2800000011920929,103.11000061035156,10.25,11.84000015258789,1.409999966621399,1.1299999952316284,1.409999966621399
